{"feasible":false,"route":{"stops":[{"stopNumber":1,"city":{"id":"city-mexico-city","name":"Mexico City","country":"Mexico","latitude":19.3029,"longitude":-99.1505,"stadium":"Estadio Azteca","accommodation_per_night":110},"match":{"id":"match-1","homeTeam":{"id":"team-mexico","name":"Mexico","code":"MEX","group":"A"},"awayTeam":{"id":"team-south-africa","name":"South Africa","code":"RSA","group":"A"},"city":{"id":"city-mexico-city","name":"Mexico City","country":"Mexico","latitude":19.3029,"longitude":-99.1505,"stadium":"Estadio Azteca","accommodation_per_night":110},"kickoff":"2026-06-11T17:00:00Z","group":"A","matchDay":1,"ticketPrice":120},"distanceFromPrevious":0},{"stopNumber":2,"city":{"id":"city-dallas","name":"Dallas","country":"USA","latitude":32.7473,"longitude":-97.0945,"stadium":"AT&T Stadium","accommodation_per_night":160},"match":{"id":"match-7","homeTeam":{"id":"team-united-states","name":"United States","code":"USA","group":"D"},"awayTeam":{"id":"team-paraguay","name":"Paraguay","code":"PAR","group":"D"},"city":{"id":"city-dallas","name":"Dallas","country":"USA","latitude":32.7473,"longitude":-97.0945,"stadium":"AT&T Stadium","accommodation_per_night":160},"kickoff":"2026-06-13T17:00:00Z","group":"D","matchDay":1,"ticketPrice":195},"distanceFromPrevious":1508.8878730366685},{"stopNumber":3,"city":{"id":"city-seattle","name":"Seattle","country":"USA","latitude":47.5952,"longitude":-122.3316,"stadium":"Lumen Field","accommodation_per_night":200},"match":{"id":"match-13","homeTeam":{"id":"team-belgium","name":"Belgium","code":"BEL","group":"G"},"awayTeam":{"id":"team-egypt","name":"Egypt","code":"EGY","group":"G"},"city":{"id":"city-seattle","name":"Seattle","country":"USA","latitude":47.5952,"longitude":-122.3316,"stadium":"Lumen Field","accommodation_per_night":200},"kickoff":"2026-06-15T17:00:00Z","group":"G","matchDay":1,"ticketPrice":110},"distanceFromPrevious":2685.435904680342},{"stopNumber":4,"city":{"id":"city-guadalajara","name":"Guadalajara","country":"Mexico","latitude":20.682,"longitude":-103.4626,"stadium":"Estadio Akron","accommodation_per_night":95},"match":{"id":"match-25","homeTeam":{"id":"team-mexico","name":"Mexico","code":"MEX","group":"A"},"awayTeam":{"id":"team-south-korea","name":"South Korea","code":"KOR","group":"A"},"city":{"id":"city-guadalajara","name":"Guadalajara","country":"Mexico","latitude":20.682,"longitude":-103.4626,"stadium":"Estadio Akron","accommodation_per_night":95},"kickoff":"2026-06-20T17:00:00Z","group":"A","matchDay":2,"ticketPrice":115},"distanceFromPrevious":3439.3477428642227},{"stopNumber":5,"city":{"id":"city-houston","name":"Houston","country":"USA","latitude":29.6847,"longitude":-95.4107,"stadium":"NRG Stadium","accommodation_per_night":150},"match":{"id":"match-37","homeTeam":{"id":"team-belgium","name":"Belgium","code":"BEL","group":"G"},"awayTeam":{"id":"team-iran","name":"Iran","code":"IRN","group":"G"},"city":{"id":"city-houston","name":"Houston","country":"USA","latitude":29.6847,"longitude":-95.4107,"stadium":"NRG Stadium","accommodation_per_night":150},"kickoff":"2026-06-24T17:00:00Z","group":"G","matchDay":2,"ticketPrice":100},"distanceFromPrevious":1286.909900318275}],"totalDistance":8920.581420899509,"strategy":"budget-optimised"},"costBreakdown":{"flights":1575,"accommodation":2070,"tickets":640,"total":4285},"countriesVisited":["Mexico","USA"],"missingCountries":["Canada"],"suggestions":["Add matches in: Canada"]}